{
  "StudentsNew": [
    {
      "id": "1",
      "name": "John",
      "location": "india",
      "phone": "1234567890",
      "courses": [
        "java",
        "selenium"
      ]
    },
    {
      "id": "2",
      "name": "Kim",
      "location": "Canada",
      "phone": "2345678901",
      "courses": [
        "java",
        "python"
      ]
    },
    {
      "id": "3",
      "name": "Peter",
      "location": "France",
      "phone": "3456789012",
      "courses": [
        "sql",
        "python"
      ]
    },
    {
      "courses": [
        "cucumber",
        "gradle"
      ],
      "phone": "1231231234",
      "name": "Alice",
      "location": "USA",
      "id": "eVCMLQv"
    },
    {
      "courses": [
        "cucumber",
        "gradle"
      ],
      "phone": "1231231234",
      "name": "Alice",
      "location": "USA",
      "id": "z69uums"
    },
    {
      "courses": [
        "cucumber",
        "gradle"
      ],
      "phone": "1231231234",
      "name": "Alice",
      "location": "USA",
      "id": "FzC_qfV"
    },
    {
      "courses": [
        "cucumber",
        "gradle"
      ],
      "phone": "1231231234",
      "name": "Alice",
      "location": "USA",
      "id": "yUD8HZ8"
    },
    {
      "courses": [
        "cucumber",
        "gradle"
      ],
      "phone": "1231231234",
      "name": "Alice",
      "location": "USA",
      "id": "nVJTE9K"
    },
    {
      "courses": [
        "cucumber",
        "gradle"
      ],
      "phone": "1231231234",
      "name": "Alice",
      "location": "USA",
      "id": "8R2bG0U"
    },
    {
      "courses": [
        "cucumber",
        "gradle"
      ],
      "phone": "1231231234",
      "name": "Alice",
      "location": "USA",
      "id": "Ph0kYGd"
    },
    {
      "courses": [
        "java",
        "api"
      ],
      "phone": "3213214321",
      "name": "Denise",
      "location": "UK",
      "id": "zazJdCl"
    },
    {
      "courses": [
        "java",
        "api"
      ],
      "phone": "3213214321",
      "name": "Denise",
      "location": "UK",
      "id": "LlV8IO4"
    }
  ]
}